name,latitude,longitude,count
Oslo,59.975392335668623,10.738759025694977,9034
Nordland,67.123475111553162,13.908069345866942,8709
Viken,60.043864112215608,9.972647764726981,8617
Trøndelag,63.911749884246412,10.899119444670195,8457
Troms og Finnmark,69.987686441275571,23.443274091170696,8381
Vestland,60.912912622641649,5.969116966557067,8370
Rogaland,59.035166461243975,5.868373444721857,8105
Vestfold og Telemark,59.417662044070866,8.914348167088367,7993
Innlandet,61.439147777644699,10.441060410553726,7976
Møre og Romsdal,62.709912278943143,7.201969939935447,7564
Agder,58.533697190544508,7.710662305515249,7416
Bergen,60.359802393828737,5.370998003415741,1762
Sør,60.223645867561061,11.753809128115085,1203
Fredrikstad,59.215920902593609,10.871904161116440,1194
Drammen,59.709626124511423,10.166904323065197,1173
Bodø,67.403101452724087,14.043215467793431,1126
Tromsø,69.744523696815563,18.630325054634508,1083
Nord,60.438027142271977,11.581759132661137,1036
Stavanger,59.139791592364084,5.785538371545174,1025
Førde,61.452175900000000,5.857172500000000,1005
Haugesund,59.470297789523585,5.195645569537758,826
Trondheim,63.369738815446532,10.396368817141465,791
Alta,70.014256568790699,23.220220219555088,721
Molde,62.760510419088050,7.533390871603315,684
Tønsberg,59.370889777551575,10.390892038800919,641
Stor,61.589018853551003,10.784546125788877,592
Porsgrunn,59.108284739685978,9.754099552978120,545
Kristiansand,58.062980722847222,7.954644603607125,530
Svalbard,78.719851899999995,20.349332799999999,417
Ålesund,62.727362605814946,6.325934371724508,406
Lillestrøm,59.947692755612231,11.206155470348477,392
Sande,62.279613966135571,5.318515671452649,356
Kristiansund,63.253000757977183,7.447023625449559,350
Sarpsborg,59.279895003959339,11.160295870369433,297
Bryne,58.735525000000003,5.647818300000000,276
Midt,59.429840553102096,9.135408642107958,261
Sandefjord,59.103903950749000,10.131579909716221,249
Grimstad,58.284567174837427,8.671992097586271,240
Sandnes,58.976591415106824,6.295519218324787,233
Kongsberg,59.578169131612505,9.668425862179388,217
Strand,59.031843321787839,6.023107147512158,201
Halden,59.086116252306979,11.492144735778032,200
Arendal,58.433344261923558,8.962140904974355,187
Skien,59.294319744865710,9.483887526716586,175
Bø,68.718284996969587,14.195763338213883,169
Lillehammer,61.127905069342425,10.391054778984596,163
Straume,60.358379700000000,5.123512900000000,163
Lund,58.490091762936714,6.472253167739036,154
Bærum,59.933255329486869,10.506831010365250,149
Kárášjohka,69.408686517533397,25.138484170585389,142
Larvik,59.055964444613664,10.009825683978752,140
Hamar,60.950438394433448,11.143049171256868,139
Lørenskog,59.892461852755716,10.969314009569906,131
Ringerike,60.294478897341889,10.087928435486599,131
Årdal,61.290128277993787,7.805808433046808,130
Asker,59.683190172978279,10.476686113210187,126
Hønefoss,60.166208200000000,10.255485999999999,106
Moss,59.411266874243132,10.666431420931675,100
Stjørdal,63.466876600167232,11.184925722952388,96
Sogndal,61.277755020349588,6.792559102490204,96
Vik,61.034195504778687,6.550141757059272,93
Gjøvik,60.887828867232066,10.470437232620730,93
Hole,60.044852943708591,10.294729273084318,91
Hammerfest,70.647720282726482,23.607070120004401,90
Nes,60.139439608888566,11.499307859934984,90
Lier,59.859962724753764,10.234585969422637,89
Vadsø,70.170903684584474,29.873969545900934,88
Steinkjer,64.045422070519678,11.510178832349325,86
Flekkefjord,58.238420023461067,6.523838906004956,84
Sola,58.885940684652638,5.346759137316738,83
Notodden,59.652869856274300,9.152230649216808,82
Karmøy,59.139980769778255,5.046110946441748,81
Kongsvinger,60.215471777141133,12.218899270072571,80
Indre Østfold,59.596570262200103,11.216361454394566,80
Voss,60.682666135343680,6.471347053420748,79
Harstad,68.947804584342961,16.498003114574281,79
Narvik,68.277552546550567,17.215880374683383,79
Frosta,63.587898066980543,10.706540446239357,78
Elverum,60.959030256011147,11.736134578522488,74
Levanger,63.678131817659299,11.234650078930764,74
Ski,59.719932600000000,10.838273600000001,67
Lindesnes,58.005483666348688,7.412234221165936,66
Nordkapp,71.083504519520673,25.966084977638570,66
Raufoss,60.726079900000002,10.613323599999999,65
Nesbyen,60.551386987319482,9.072396882776593,64
Sunnfjord,61.469799589828391,6.099745261361163,61
Kragerø,58.811876028593012,9.565681696867911,60
Rana,66.411266669472809,14.487530944544879,60
Porsanger,70.205502870611539,25.177527741453215,60
Gran,60.429545218442634,10.514713071122685,59
Lillesand,58.120683815305171,8.416590601970704,56
Kirkenes,69.727147799999997,30.044897100000000,55
Jessheim,60.141512100000000,11.175151600000000,54
Os,62.474980709426589,11.292096630639957,54
Stord,59.815304633861899,5.482456594328887,52
Lyngdal,58.166752768636101,7.128922074767406,50
Senja,69.392158875454868,17.330710457860562,50
Aurland,60.861515062562404,7.234029329757377,49
Bømlo,59.720141798402757,4.975170981355967,49
Hokksund,59.771192100000000,9.909477799999999,48
Ørland,63.820119672345811,9.600351529464731,48
Ringsaker,60.995633537469679,10.850702093274061,48
Hvaler,59.018247894788928,10.878367659622974,48
Florø,61.600258300000000,5.034959600000000,46
Meløy,66.926792127911568,13.322194046148963,46
Lyngen,69.712722098319659,20.082902003330414,45
Otta,61.771244799999998,9.535254100000000,44
Holmestrand,59.559017607858252,10.181604162651244,44
Rakkestad,59.371646229688707,11.416622494263306,43
Namsos,64.488014177500787,11.396882039691565,43
Sortland,68.693748960822603,15.444102136157719,43
Mandal,58.026818100000000,7.453480200000000,43
Stranda,62.139902074042674,6.983820126441693,43
Øygarden,60.413553928659461,4.736367349729915,43
Kinn,61.603155203024322,4.869225447676082,41
Farsund,58.029160729527632,6.631725132800049,40
Valle,59.164587074251237,7.431877472934898,40
Fjord,62.289252277275473,7.366760125208385,40
Bamble,59.007446599767839,9.558994087585333,40
Stange,60.643944143913153,11.333333618297173,39
Verdal,63.786653062046156,12.006842129705799,39
Gol,60.746824918079589,8.999155325994092,39
Røst,67.385110574750982,11.981877607940516,38
Horten,59.405894489638321,10.466270200362560,38
Mosjøen,65.837534199999993,13.189209800000000,38
Klepp,58.743048571308954,5.374501064492670,38
Åmli,58.803870072685449,8.339255242660593,37
Volda,62.038302851522815,6.509791036109445,37
Færder,59.018913368418310,10.495914841467402,37
Ål,60.651730871269649,8.586805146210443,37
Gamvik,70.947464275384874,28.132595131243040,37
Kvinesdal,58.510159849881134,6.977823556837069,37
Eidsvoll,60.377510889741075,11.251919701156039,36
Moelv,60.929777899999998,10.700042200000000,36
Drøbak,59.663300499999998,10.629339200000000,36
Oppdal,62.541078577751179,9.540349949650297,35
Våler,60.784659256667958,11.951164585828488,35
Nesodden,59.807597838068773,10.643495619886169,35
Jevnaker,60.280202094167699,10.392490571171788,35
Fauske,67.161861554641632,16.043484869791971,34
Ulstein,62.377096742847648,5.828750255670859,34
Vennesla,58.330920812910044,7.829186924207936,34
Brevik,59.052888600000003,9.699978000000000,34
Mo i Rana,66.311096899999995,14.138699100000000,33
Bjørnafjorden,60.200250880779215,5.648980547091615,33
Vang,61.217747730615002,8.475038613230327,32
Rørvik,64.861574500000003,11.237912800000000,32
Frøya,64.023557633486732,8.791746659988325,31
Stryn,61.849893132188484,6.897560039921878,31
Målselv,68.808330085274676,19.783761981807512,31
Time,58.718901442443453,5.762451221193110,31
Krødsherad,60.197952681180048,9.667730033331532,31
Kvinnherad,59.959651675973518,6.012366193805504,30
Giske,62.615000080294678,5.784726503067770,30
Sel,61.811626807919701,9.550197718266320,30
Sunndal,62.594525068251883,8.703219487947607,30
Stad,62.203704932151560,5.029010141272167,30
Svolvær,68.232170900000000,14.564601900000000,29
Modum,59.984769690086104,9.961940045742052,29
Ås,59.678644016918604,10.783873779740185,29
Ringebu,61.557370238592227,10.319276917978600,29
Balsfjord,69.262170758038081,19.215927351692006,28
Tvedestrand,58.577836019264566,9.147159680806871,28
Inderøy,63.872822825020350,11.075439897516201,27
Gloppen,61.725301156053838,6.160046441063771,27
Røros,62.577166073702820,11.729483591762149,27
Drangedal,59.100079561046826,8.978390101106051,27
Egersund,58.451512100000002,6.000755400000000,26
Trysil,61.328135103093167,12.288802285974130,26
Hol,60.570081815856945,8.011668496469831,25
Sandvika,59.892115799999999,10.524991399999999,25
Sauda,59.700361518919330,6.446632538456472,25
Hemsedal,60.910876286491607,8.467363157257049,25
Ullensvang,60.108195678599138,6.791701908014822,24
Kvam,60.371781995161136,6.134570333716988,24
Marker,59.486314996631677,11.651681189186883,24
Løten,60.849247630783474,11.390598762997834,24
Tynset,62.330476880015873,10.622527894041877,23
Østre Toten,60.608860701769039,10.890248673154753,23
Søndre Land,60.676712671020432,10.270837779217540,23
Dovre,62.078704930935409,9.458658202587538,22
Bjerkreim,58.662621829584531,6.200675957975258,22
Steigen,67.814845719440171,14.764956423387849,22
Lom,61.714060241953497,8.479244354554336,22
Rauma,62.402918026552065,7.956229222133380,22
Brumunddal,60.884915999999997,10.941839200000000,22
Nome,59.275176879460183,9.124470067716207,22
Øyer,61.319832274536942,10.535947652972837,22
Sandnessjøen,66.021545099999997,12.631723200000000,21
Herøy,66.114019142251294,11.632966988557387,21
Melhus,63.159488687482387,10.270806215323399,21
Nordre Follo,59.743850049380164,10.873858250461462,21
Ørsta,62.236667588732765,6.331445538140756,21
Longyearbyen,78.223155800000001,15.646365599999999,21
Råde,59.331383373014511,10.811548226631803,21
Sirdal,58.866137481267927,6.839233696871799,21
Øvre Eiker,59.753312992734564,9.848198612520111,21
Utsira,59.270576032570474,4.706077303597721,20
Flå,60.415912273812665,9.502618353214825,20
Mysen,59.555692600000000,11.325959599999999,20
Gjerdrum,60.080802624285830,11.013053538491031,20
Seljord,59.531017798900194,8.574777946308325,20
Vestby,59.567233672643191,10.725766017946022,20
Evenes,68.491085854772521,16.973207120083313,20
Luster,61.533685072789261,7.442614152275345,20
Engerdal,61.981192179922914,11.954037861863670,20
Rjukan,59.878697600000002,8.594157900000001,19
Vega,65.726816326288613,11.486064966849662,19
Vestvågøy,68.192169079900651,13.673285966280851,19
Skjåk,61.933559024392252,7.886483468732875,19
Tysnes,60.005621790224730,5.548940714493908,19
Sigdal,60.067539352888524,9.511218009885225,19
Sørfold,67.514513990875912,15.750838108729251,18
Vardø,70.313740062810368,31.065522735049974,18
Vågan,68.251263139539702,14.436056672269265,18
Vågå,61.512805965505066,8.727315949679994,18
Høyanger,61.137229378022035,5.914917625169452,17
Austevoll,60.040318723409506,4.949533809589751,17
Åndalsnes,62.568169200000000,7.686762100000000,17
Båtsfjord,70.599412453070101,30.188302385478146,17
Askim,59.583222399999997,11.164190800000000,17
Askøy,60.483750152657628,5.093416369473072,17
Vinje,59.821417906806047,7.728742940794733,17
Vegårshei,58.758805812629703,8.824125983690960,17
Alver,60.673092101248983,5.234379072163699,17
Gulen,60.967423776377835,5.123709201125338,17
Stavern,58.998339700000002,10.036006100000000,16
Gjesdal,58.813485212441215,6.251592025305444,16
Heim,63.299449353830518,9.115994592573458,16
Skaun,63.274011473434754,10.035715899846940,16
Froland,58.562701185909162,8.571939885377494,16
Alvdal,62.067579476983042,10.507800451244373,16
Aurskog,59.819920930051907,11.613292835127655,16
Odda,60.067924800000000,6.546931600000000,16
Nordreisa,69.326872385935459,22.007943451931126,15
Hå,58.540083767282830,5.550674926975339,15
Skjervøy,70.141662861634870,20.718549368303364,15
Dønna,66.172772158797216,12.374516923839716,15
Lærdal,61.044899527200485,7.722717167157576,15
Hitra,63.555207017149712,8.762309807870352,15
Nordfjordeid,61.907680999999997,5.989138100000000,15
Gausdal,61.271601932505831,9.860203708106070,15
Aremark,59.214573884446075,11.696847801716187,15
Sømna,65.275981369152589,12.015226364060402,15
Leirvik,59.780939799999999,5.500571200000000,14
Vestre Toten,60.644788173205015,10.622669111681171,14
Nærøysund,64.907623751370409,10.949796885861023,14
Loppa,70.404994167852351,21.469204042661900,14
Moskenes,67.908590826282776,12.894854835010475,14
Lebesby,70.658613607959197,26.878196937245228,14
Fitjar,59.910829464208120,5.303183462864957,14
Finnsnes,69.229601599999995,17.981296600000000,14
Samnanger,60.396835065762090,5.788711807653969,14
Saltdal,66.891354117783308,15.525566707459800,14
Sunndalsøra,62.675197199999999,8.563293399999999,13
Bremanger,61.856044687211480,4.617223507325094,13
Salangen,68.892885093373266,17.848853985770880,13
Karlsøy,70.257465014203632,19.413868822257118,13
Nesna,66.242342234488817,12.966954066185055,13
Lurøy,66.414265505525364,12.661238762275390,13
Lunner,60.244828416524321,10.663384818212812,13
Åsnes,60.650142377318367,12.167333464465377,13
Andøy,69.233299309434528,15.810698376482907,13
Sokndal,58.262196888070946,6.199181178734537,13
Vefsn,65.857125027175570,13.215435513518846,13
Siljan,59.309990274143267,9.725461986337123,13
Bardufoss,69.065636999999995,18.515923699999998,13
Flakstad,68.156536240956271,13.051299622197689,13
Lødingen,68.339188970550126,15.638845764588295,12
Vindafjord,59.552315250049105,5.786231717982094,12
Suldal,59.509228196949167,6.562267367415057,12
Fagernes,60.986098100000000,9.236413000000001,12
Kvæfjord,68.696415517340029,16.027653749367882,12
Nittedal,60.083547261491105,10.853362102299053,12
Barentsburg,78.065361999999993,14.217236700000001,12
Meråker,63.403891131970902,11.831468283433971,12
Hemnes,66.014362992692526,14.030825204237457,12
Åmot,61.254970815221263,11.499338406206702,12
Risør,58.681034017534820,9.323572308818711,12
Birkenes,58.446806265356344,8.195850323311218,12
Øksnes,69.017143767681844,14.897018061933757,12
Selbu,63.200249824804928,11.137160865392337,12
Dokka,60.834716499999999,10.073902300000000,12
Frogn,59.665649057196610,10.683135155236650,12
Leirfjord,66.093176384428801,13.033778932808620,12
Gjerstad,58.888800247375237,8.978739554302694,12
Høylandet,64.744382495769159,12.356573779397870,12
Vaksdal,60.599804178143053,5.774961512425743,12
Holtålen,62.851406132892897,11.246361055579474,12
Ulsteinvik,62.342662900000001,5.846860000000000,11
Kvænangen,69.844548035855226,21.970904177813917,11
Bardu,68.663771305454603,18.893466164170803,11
Brønnøysund,65.474875499999996,12.211639399999999,11
Tolga,62.356977686666205,11.082241023904311,11
Smøla,63.463223963509769,7.753089456064451,11
Iveland,58.436878221416919,7.943724238776324,11
Alstahaug,65.864142943160189,12.418471613947787,11
Beiarn,66.888910231441912,14.656513801554343,11
Skiptvet,59.479722224190766,11.152523384165244,11
Nore og Uvdal,60.277087700364248,8.447918564786864,11
Nordre Land,60.945726157938665,9.969277860039304,11
Hareid,62.358930166223004,6.011286623457512,10
Brønnøy,65.452654818041154,12.530344587730475,10
Ibestad,68.842319887093183,17.093879844339138,10
Grue,60.456867784614502,12.407291006355623,10
Overhalla,64.455757171094490,11.903970309354639,10
Fyresdal,59.161148896066770,8.055701008434896,10
Skudeneshavn,59.149747200000000,5.258171500000000,10
Grane,65.398724773148942,13.450071259237358,10
Vinstra,61.596490600000003,9.736191300000000,10
Rendalen,61.818372400659129,11.278267413781945,10
Hustadvika,63.009180597389005,7.036393415139835,10
Vanylven,62.094806007687964,5.629764720525561,10
Måsøy,71.001095872146308,24.459790844815089,10
Gildeskål,67.048717499516087,13.923846979204482,10
Storfjord,69.230538749326087,20.364133376774674,9
Måløy,61.933688799999999,5.112913300000000,9
Etne,59.867734941013325,6.318383612047872,9
Osterøy,60.521114820022824,5.523315636738417,9
Tysvær,59.360282954870037,5.615015989028372,9
Leknes,68.147464600000006,13.611531100000001,9
Hægebostad,58.472351544978345,7.200046084929997,9
Hurdal,60.430462895624800,10.949350578966303,9
Ålgård,58.769207600000001,5.847239900000000,9
Ullensaker,60.150632817795454,11.196468599022619,9
Vestnes,62.582503889524666,7.067438132782329,9
Flatanger,64.521986681778330,10.591045189962172,9
Eigersund,58.398082614444888,5.953565625554718,9
Tinn,59.997309025317321,8.562515289877691,9
Berlevåg,70.796353593048480,29.181295176592172,9
Modalen,60.887386309061164,5.929250566683243,9
Rollag,60.010593057064838,9.217388409083897,9
Sykkylven,62.359115018118842,6.643856535510252,8
Vikersund,59.966088100000000,9.994865000000001,8
Kviteseid,59.370236876643474,8.491448233140392,8
Randaberg,59.011879607262088,5.558420731376838,8
Nannestad,60.233695420659750,10.961803713942551,8
Vevelstad,65.690098658864073,12.625156807857861,8
Askvoll,61.367715010380387,4.681597447147388,8
Eidskog,59.996299140910395,12.062326953643158,8
Jørpeland,59.020891700000000,6.039355300000000,8
Tingvoll,62.962568736994214,8.159346156847283,8
Surnadal,62.922601690745495,8.840135414950439,8
Værøy,67.645989232236957,12.759492083810946,8
Bindal,65.133245839644346,12.527255842188703,8
Glomfjord,66.816569299999998,13.943650000000000,8
Solund,61.070297060852795,4.520154968266521,8
Honningsvåg,70.980263800000003,25.977841000000002,8
Gratangen,68.696285284654337,17.495893661055980,7
Eidfjord,60.370324658239589,7.352194357082171,7
Hyllestad,61.179521841481282,5.235597959737755,7
Træna,66.552082031116811,11.897014405365521,7
Rennebu,62.844345071801115,9.858865676749542,7
Hasvik,70.650744822242160,22.134119647789834,7
Sveio,59.597868414190060,5.403953493265105,7
Etnedal,60.974799633780457,9.640176065379968,7
Sula,62.415154444662377,6.189968789679964,7
Tydal,63.007887346509882,11.807865508442324,7
Stokmarknes,68.567000300000004,14.913348400000000,6
Rødøy,66.916929907300940,12.225717340525549,6
Lesja,62.191467970958243,8.635425987378069,6
Vestre Slidre,61.032474972883975,8.884234758218332,6
Austrheim,60.798115996960576,4.875705113648146,6
Malvik,63.346632887769879,10.861682685710973,6
Averøy,63.055815760712157,7.538284820299290,6
Rælingen,59.882310758903756,11.077263877165377,6
Langesund,59.000697000000002,9.748443699999999,6
Åseral,58.699568951064009,7.399919843868132,6
Evje og Hornnes,58.581057661711512,7.764704909844138,6
Tokke,59.423854739734544,7.949496908118484,6
Øystre Slidre,61.244277459420204,9.097039369777281,6
Folldal,62.173909985371864,10.019070303360639,6
Kvitsøy,59.016298159722517,5.282687558141494,6
Hjelmeland,59.224190702551283,6.427373858885885,5
Sørreisa,69.097275207352794,18.157835861090419,5
Dyrøy,69.008640906920107,17.449169841238930,5
Ulvik,60.639673222428478,7.208489060168603,5
Åfjord,64.090852118227730,10.190002903695881,5
Hadsel,68.498342701285992,14.875648844433860,5
Orkland,63.296044250595060,9.644402645327622,5
Fedje,60.789815167660002,4.474007613127116,5
Leka,65.225711852766167,11.135696610418776,5
Lierne,64.367628136053455,13.627853789336537,5
Råholt,60.283857800000000,11.172873299999999,5
Osen,64.441820239051253,10.097867887624162,5
Rindal,63.031913368373338,9.292825942422052,5
Fjaler,61.285419622528167,5.368317261469721,5
Enebakk,59.766581524845208,11.102882230797796,5
Aure,63.259428388355836,8.414196334639549,4
Bygland,58.851875007156906,7.780715869251428,4
Kopervik,59.283584500000003,5.306697500000000,4
Nissedal,59.059508516539829,8.541230701635858,4
Aarborte,65.503983341629848,14.136870228425586,4
Svelvik,59.613520500000000,10.409106599999999,4
Masfjorden,60.857304812514251,5.463852010345632,4
Midtre Gauldal,62.901969988248787,10.534226631875404,4
Rognan,67.101438599999994,15.393562599999999,3
Knarvik,60.546149200000002,5.285399000000000,3
Aukra,62.819744588298867,6.724061595869251,3
Hjartdal,59.700875266345015,8.707135306415953,3
Stathelle,59.043878999999997,9.695275499999999,3
Gjemnes,62.903195126711459,7.944404078723121,3
Namsskogan,64.864889866109550,13.009542049301444,3
Flesberg,59.847977726909569,9.492557931195320,3
Bykle,59.437345943019288,7.203129078093856,3
Nesoddtangen,59.856145200000000,10.661621100000000,2
Grong,64.514352255471934,12.589047488950687,2
Orkanger,63.304819000000002,9.849667600000000,2
Åsgårdstrand,59.349138699999997,10.468019800000000,2
Deatnu,70.240445278186428,27.660960964863968,2
Fosnavåg,62.342106100000002,5.634243300000000,2
Loabák,68.766742997866302,17.743733313778236,2
Raarvihke,64.901075843156931,13.636709114256611,2
Brekstad,63.686871600000003,9.666499600000000,1
Åkrehamn,59.260800099999997,5.185950100000000,1
Kolvereid,64.864703700000007,11.602705300000000,1
Kleppestø,60.408433700000003,5.227631700000000,1
Bokn,59.194952076056140,5.460642064344222,1
Snåase,64.204686597370696,12.627697182669390,1
Hábmer,67.965701986685659,16.054061897045742,1
Gáivuotna,69.478328868601295,20.742253542351595,1
Unjárga,70.132586931755441,28.798395696515843,1
Dielddanuorri,68.619450384257334,16.774700859273441,1
Guovdageaidnu,69.131738763715887,23.554525333061008,1
Storslett,69.767852099999999,21.024456700000002,1
