name,latitude,longitude,count
Oslo,59.975392335668623,10.738759025694977,246
Vestland,60.912912622641649,5.969116966557067,240
Troms og Finnmark,69.987686441275571,23.443274091170696,236
Trøndelag,63.911749884246412,10.899119444670195,235
Viken,60.043864112215608,9.972647764726981,234
Nordland,67.123475111553162,13.908069345866942,232
Vestfold og Telemark,59.417662044070866,8.914348167088367,221
Innlandet,61.439147777644699,10.441060410553726,221
Rogaland,59.035166461243975,5.868373444721857,215
Møre og Romsdal,62.709912278943143,7.201969939935447,209
Agder,58.533697190544508,7.710662305515249,206
Trondheim,63.369738815446532,10.396368817141465,50
Bergen,60.359802393828737,5.370998003415741,47
Drammen,59.709626124511423,10.166904323065197,35
Stavanger,59.139791592364084,5.785538371545174,34
Fredrikstad,59.215920902593609,10.871904161116440,30
Førde,61.452175900000000,5.857172500000000,30
Halden,59.086116252306979,11.492144735778032,27
Kristiansand,58.062980722847222,7.954644603607125,27
Tromsø,69.744523696815563,18.630325054634508,27
Sør,60.223645867561061,11.753809128115085,23
Bodø,67.403101452724087,14.043215467793431,23
Nord,60.438027142271977,11.581759132661137,22
Alta,70.014256568790699,23.220220219555088,18
Haugesund,59.470297789523585,5.195645569537758,16
Tønsberg,59.370889777551575,10.390892038800919,16
Grimstad,58.284567174837427,8.671992097586271,15
Porsgrunn,59.108284739685978,9.754099552978120,15
Stor,61.589018853551003,10.784546125788877,14
Larvik,59.055964444613664,10.009825683978752,12
Årdal,61.290128277993787,7.805808433046808,11
Molde,62.760510419088050,7.533390871603315,11
Ålesund,62.727362605814946,6.325934371724508,9
Otta,61.771244799999998,9.535254100000000,9
Kárášjohka,69.408686517533397,25.138484170585389,8
Hamar,60.950438394433448,11.143049171256868,8
Lillestrøm,59.947692755612231,11.206155470348477,8
Lillehammer,61.127905069342425,10.391054778984596,7
Svalbard,78.719851899999995,20.349332799999999,7
Kristiansund,63.253000757977183,7.447023625449559,7
Sandefjord,59.103903950749000,10.131579909716221,7
Sola,58.885940684652638,5.346759137316738,7
Midt,59.429840553102096,9.135408642107958,6
Steinkjer,64.045422070519678,11.510178832349325,6
Bærum,59.933255329486869,10.506831010365250,5
Voss,60.682666135343680,6.471347053420748,5
Stord,59.815304633861899,5.482456594328887,5
Kongsberg,59.578169131612505,9.668425862179388,5
Kirkenes,69.727147799999997,30.044897100000000,5
Nordreisa,69.326872385935459,22.007943451931126,4
Vik,61.034195504778687,6.550141757059272,4
Straume,60.358379700000000,5.123512900000000,4
Florø,61.600258300000000,5.034959600000000,4
Moss,59.411266874243132,10.666431420931675,4
Sandnes,58.976591415106824,6.295519218324787,4
Strand,59.031843321787839,6.023107147512158,3
Sandnessjøen,66.021545099999997,12.631723200000000,3
Kvinnherad,59.959651675973518,6.012366193805504,3
Lund,58.490091762936714,6.472253167739036,3
Frøya,64.023557633486732,8.791746659988325,3
Fjord,62.289252277275473,7.366760125208385,3
Sogndal,61.277755020349588,6.792559102490204,3
Harstad,68.947804584342961,16.498003114574281,3
Hole,60.044852943708591,10.294729273084318,3
Bremanger,61.856044687211480,4.617223507325094,3
Narvik,68.277552546550567,17.215880374683383,3
Ulstein,62.377096742847648,5.828750255670859,3
Austevoll,60.040318723409506,4.949533809589751,3
Arendal,58.433344261923558,8.962140904974355,3
Båtsfjord,70.599412453070101,30.188302385478146,3
Sarpsborg,59.279895003959339,11.160295870369433,3
Vadsø,70.170903684584474,29.873969545900934,3
Fauske,67.161861554641632,16.043484869791971,2
Flekkefjord,58.238420023461067,6.523838906004956,2
Lillesand,58.120683815305171,8.416590601970704,2
Kragerø,58.811876028593012,9.565681696867911,2
Kinn,61.603155203024322,4.869225447676082,2
Leirvik,59.780939799999999,5.500571200000000,2
Valle,59.164587074251237,7.431877472934898,2
Sykkylven,62.359115018118842,6.643856535510252,2
Hareid,62.358930166223004,6.011286623457512,2
Inderøy,63.872822825020350,11.075439897516201,2
Hå,58.540083767282830,5.550674926975339,2
Rana,66.411266669472809,14.487530944544879,2
Elverum,60.959030256011147,11.736134578522488,2
Brønnøy,65.452654818041154,12.530344587730475,2
Raufoss,60.726079900000002,10.613323599999999,2
Lyngdal,58.166752768636101,7.128922074767406,2
Flå,60.415912273812665,9.502618353214825,2
Lindesnes,58.005483666348688,7.412234221165936,2
Notodden,59.652869856274300,9.152230649216808,2
Gjøvik,60.887828867232066,10.470437232620730,2
Rakkestad,59.371646229688707,11.416622494263306,2
Oppdal,62.541078577751179,9.540349949650297,2
Sortland,68.693748960822603,15.444102136157719,2
Volda,62.038302851522815,6.509791036109445,2
Stryn,61.849893132188484,6.897560039921878,2
Vindafjord,59.552315250049105,5.786231717982094,2
Skien,59.294319744865710,9.483887526716586,2
Rjukan,59.878697600000002,8.594157900000001,2
Ørland,63.820119672345811,9.600351529464731,2
Indre Østfold,59.596570262200103,11.216361454394566,2
Karlsøy,70.257465014203632,19.413868822257118,2
Lyngen,69.712722098319659,20.082902003330414,2
Dyrøy,69.008640906920107,17.449169841238930,2
Gloppen,61.725301156053838,6.160046441063771,2
Herøy,66.114019142251294,11.632966988557387,2
Askim,59.583222399999997,11.164190800000000,2
Dovre,62.078704930935409,9.458658202587538,2
Kongsvinger,60.215471777141133,12.218899270072571,1
Lødingen,68.339188970550126,15.638845764588295,1
Røst,67.385110574750982,11.981877607940516,1
Stjørdal,63.466876600167232,11.184925722952388,1
Farsund,58.029160729527632,6.631725132800049,1
Asker,59.683190172978279,10.476686113210187,1
Hjelmeland,59.224190702551283,6.427373858885885,1
Brekstad,63.686871600000003,9.666499600000000,1
Nesoddtangen,59.856145200000000,10.661621100000000,1
Utsira,59.270576032570474,4.706077303597721,1
Karmøy,59.139980769778255,5.046110946441748,1
Høyanger,61.137229378022035,5.914917625169452,1
Sunndalsøra,62.675197199999999,8.563293399999999,1
Grong,64.514352255471934,12.589047488950687,1
Vikersund,59.966088100000000,9.994865000000001,1
Stavern,58.998339700000002,10.036006100000000,1
Eidsvoll,60.377510889741075,11.251919701156039,1
Stange,60.643944143913153,11.333333618297173,1
Hol,60.570081815856945,8.011668496469831,1
Vennesla,58.330920812910044,7.829186924207936,1
Åmli,58.803870072685449,8.339255242660593,1
Namsos,64.488014177500787,11.396882039691565,1
Lier,59.859962724753764,10.234585969422637,1
Verdal,63.786653062046156,12.006842129705799,1
Suldal,59.509228196949167,6.562267367415057,1
Mandal,58.026818100000000,7.453480200000000,1
Hokksund,59.771192100000000,9.909477799999999,1
Mo i Rana,66.311096899999995,14.138699100000000,1
Hønefoss,60.166208200000000,10.255485999999999,1
Sandvika,59.892115799999999,10.524991399999999,1
Stokmarknes,68.567000300000004,14.913348400000000,1
Åndalsnes,62.568169200000000,7.686762100000000,1
Ulsteinvik,62.342662900000001,5.846860000000000,1
Orkanger,63.304819000000002,9.849667600000000,1
Rognan,67.101438599999994,15.393562599999999,1
Nordkapp,71.083504519520673,25.966084977638570,1
Meløy,66.926792127911568,13.322194046148963,1
Mysen,59.555692600000000,11.325959599999999,1
Vestre Toten,60.644788173205015,10.622669111681171,1
Fagernes,60.986098100000000,9.236413000000001,1
Færder,59.018913368418310,10.495914841467402,1
Ibestad,68.842319887093183,17.093879844339138,1
Salangen,68.892885093373266,17.848853985770880,1
Kvæfjord,68.696415517340029,16.027653749367882,1
Skjervøy,70.141662861634870,20.718549368303364,1
Senja,69.392158875454868,17.330710457860562,1
Målselv,68.808330085274676,19.783761981807512,1
Balsfjord,69.262170758038081,19.215927351692006,1
Sørreisa,69.097275207352794,18.157835861090419,1
Kvænangen,69.844548035855226,21.970904177813917,1
Gratangen,68.696285284654337,17.495893661055980,1
Storfjord,69.230538749326087,20.364133376774674,1
Bardu,68.663771305454603,18.893466164170803,1
Eidfjord,60.370324658239589,7.352194357082171,1
Aure,63.259428388355836,8.414196334639549,1
Dønna,66.172772158797216,12.374516923839716,1
Nesna,66.242342234488817,12.966954066185055,1
Røros,62.577166073702820,11.729483591762149,1
Aurland,60.861515062562404,7.234029329757377,1
Stranda,62.139902074042674,6.983820126441693,1
Vega,65.726816326288613,11.486064966849662,1
Brønnøysund,65.474875499999996,12.211639399999999,1
Lærdal,61.044899527200485,7.722717167157576,1
Hyllestad,61.179521841481282,5.235597959737755,1
Knarvik,60.546149200000002,5.285399000000000,1
Porsanger,70.205502870611539,25.177527741453215,1
Træna,66.552082031116811,11.897014405365521,1
Bø,68.718284996969587,14.195763338213883,1
Svolvær,68.232170900000000,14.564601900000000,1
Bjerkreim,58.662621829584531,6.200675957975258,1
Våler,60.784659256667958,11.951164585828488,1
Modum,59.984769690086104,9.961940045742052,1
Nittedal,60.083547261491105,10.853362102299053,1
Nærøysund,64.907623751370409,10.949796885861023,1
Rennebu,62.844345071801115,9.858865676749542,1
Levanger,63.678131817659299,11.234650078930764,1
Giske,62.615000080294678,5.784726503067770,1
Måløy,61.933688799999999,5.112913300000000,1
Sel,61.811626807919701,9.550197718266320,1
Ullensvang,60.108195678599138,6.791701908014822,1
Grue,60.456867784614502,12.407291006355623,1
