name,latitude,longitude,count
Oslo,59.975392335668623,10.738759025694977,138
Trøndelag,63.911749884246412,10.899119444670195,132
Vestland,60.912912622641649,5.969116966557067,131
Viken,60.043864112215608,9.972647764726981,130
Troms og Finnmark,69.987686441275571,23.443274091170696,128
Nordland,67.123475111553162,13.908069345866942,127
Innlandet,61.439147777644699,10.441060410553726,124
Rogaland,59.035166461243975,5.868373444721857,120
Agder,58.533697190544508,7.710662305515249,119
Møre og Romsdal,62.709912278943143,7.201969939935447,119
Vestfold og Telemark,59.417662044070866,8.914348167088367,119
Trondheim,63.369738815446532,10.396368817141465,37
Bergen,60.359802393828737,5.370998003415741,26
Halden,59.086116252306979,11.492144735778032,24
Stavanger,59.139791592364084,5.785538371545174,21
Kristiansand,58.062980722847222,7.954644603607125,18
Fredrikstad,59.215920902593609,10.871904161116440,15
Sør,60.223645867561061,11.753809128115085,14
Drammen,59.709626124511423,10.166904323065197,14
Førde,61.452175900000000,5.857172500000000,14
Bodø,67.403101452724087,14.043215467793431,11
Tromsø,69.744523696815563,18.630325054634508,10
Nord,60.438027142271977,11.581759132661137,7
Alta,70.014256568790699,23.220220219555088,7
Årdal,61.290128277993787,7.805808433046808,6
Grimstad,58.284567174837427,8.671992097586271,6
Haugesund,59.470297789523585,5.195645569537758,6
Tønsberg,59.370889777551575,10.390892038800919,6
Bærum,59.933255329486869,10.506831010365250,5
Larvik,59.055964444613664,10.009825683978752,5
Porsgrunn,59.108284739685978,9.754099552978120,5
Lillehammer,61.127905069342425,10.391054778984596,4
Stor,61.589018853551003,10.784546125788877,4
Kongsberg,59.578169131612505,9.668425862179388,4
Nordreisa,69.326872385935459,22.007943451931126,3
Vik,61.034195504778687,6.550141757059272,3
Straume,60.358379700000000,5.123512900000000,3
Voss,60.682666135343680,6.471347053420748,3
Strand,59.031843321787839,6.023107147512158,3
Molde,62.760510419088050,7.533390871603315,3
Ålesund,62.727362605814946,6.325934371724508,3
Kristiansund,63.253000757977183,7.447023625449559,3
Sandefjord,59.103903950749000,10.131579909716221,3
Kvinnherad,59.959651675973518,6.012366193805504,3
Sola,58.885940684652638,5.346759137316738,3
Midt,59.429840553102096,9.135408642107958,3
Ulstein,62.377096742847648,5.828750255670859,3
Arendal,58.433344261923558,8.962140904974355,3
Svalbard,78.719851899999995,20.349332799999999,2
Kárášjohka,69.408686517533397,25.138484170585389,2
Flekkefjord,58.238420023461067,6.523838906004956,2
Lillesand,58.120683815305171,8.416590601970704,2
Sandnessjøen,66.021545099999997,12.631723200000000,2
Hamar,60.950438394433448,11.143049171256868,2
Kinn,61.603155203024322,4.869225447676082,2
Florø,61.600258300000000,5.034959600000000,2
Valle,59.164587074251237,7.431877472934898,2
Hareid,62.358930166223004,6.011286623457512,2
Stord,59.815304633861899,5.482456594328887,2
Sogndal,61.277755020349588,6.792559102490204,2
Harstad,68.947804584342961,16.498003114574281,2
Hole,60.044852943708591,10.294729273084318,2
Inderøy,63.872822825020350,11.075439897516201,2
Hå,58.540083767282830,5.550674926975339,2
Rana,66.411266669472809,14.487530944544879,2
Elverum,60.959030256011147,11.736134578522488,2
Bremanger,61.856044687211480,4.617223507325094,2
Brønnøy,65.452654818041154,12.530344587730475,2
Narvik,68.277552546550567,17.215880374683383,2
Austevoll,60.040318723409506,4.949533809589751,2
Otta,61.771244799999998,9.535254100000000,2
Raufoss,60.726079900000002,10.613323599999999,2
Kirkenes,69.727147799999997,30.044897100000000,2
Lyngdal,58.166752768636101,7.128922074767406,2
Moss,59.411266874243132,10.666431420931675,2
Flå,60.415912273812665,9.502618353214825,2
Lindesnes,58.005483666348688,7.412234221165936,2
Volda,62.038302851522815,6.509791036109445,2
Ørland,63.820119672345811,9.600351529464731,2
Fauske,67.161861554641632,16.043484869791971,1
Kongsvinger,60.215471777141133,12.218899270072571,1
Lødingen,68.339188970550126,15.638845764588295,1
Røst,67.385110574750982,11.981877607940516,1
Kragerø,58.811876028593012,9.565681696867911,1
Leirvik,59.780939799999999,5.500571200000000,1
Stjørdal,63.466876600167232,11.184925722952388,1
Farsund,58.029160729527632,6.631725132800049,1
Lund,58.490091762936714,6.472253167739036,1
Sykkylven,62.359115018118842,6.643856535510252,1
Asker,59.683190172978279,10.476686113210187,1
Hjelmeland,59.224190702551283,6.427373858885885,1
Frøya,64.023557633486732,8.791746659988325,1
Fjord,62.289252277275473,7.366760125208385,1
Brekstad,63.686871600000003,9.666499600000000,1
Nesoddtangen,59.856145200000000,10.661621100000000,1
Utsira,59.270576032570474,4.706077303597721,1
Karmøy,59.139980769778255,5.046110946441748,1
Høyanger,61.137229378022035,5.914917625169452,1
Sunndalsøra,62.675197199999999,8.563293399999999,1
Grong,64.514352255471934,12.589047488950687,1
Vikersund,59.966088100000000,9.994865000000001,1
Stavern,58.998339700000002,10.036006100000000,1
Eidsvoll,60.377510889741075,11.251919701156039,1
Stange,60.643944143913153,11.333333618297173,1
Hol,60.570081815856945,8.011668496469831,1
Notodden,59.652869856274300,9.152230649216808,1
Gjøvik,60.887828867232066,10.470437232620730,1
Vennesla,58.330920812910044,7.829186924207936,1
Rakkestad,59.371646229688707,11.416622494263306,1
Åmli,58.803870072685449,8.339255242660593,1
Oppdal,62.541078577751179,9.540349949650297,1
Namsos,64.488014177500787,11.396882039691565,1
Sandnes,58.976591415106824,6.295519218324787,1
Sortland,68.693748960822603,15.444102136157719,1
Lier,59.859962724753764,10.234585969422637,1
Stryn,61.849893132188484,6.897560039921878,1
Vindafjord,59.552315250049105,5.786231717982094,1
Verdal,63.786653062046156,12.006842129705799,1
Suldal,59.509228196949167,6.562267367415057,1
Lillestrøm,59.947692755612231,11.206155470348477,1
Skien,59.294319744865710,9.483887526716586,1
Mandal,58.026818100000000,7.453480200000000,1
Hokksund,59.771192100000000,9.909477799999999,1
Mo i Rana,66.311096899999995,14.138699100000000,1
Hønefoss,60.166208200000000,10.255485999999999,1
Sandvika,59.892115799999999,10.524991399999999,1
Rjukan,59.878697600000002,8.594157900000001,1
Stokmarknes,68.567000300000004,14.913348400000000,1
Åndalsnes,62.568169200000000,7.686762100000000,1
Ulsteinvik,62.342662900000001,5.846860000000000,1
Orkanger,63.304819000000002,9.849667600000000,1
Rognan,67.101438599999994,15.393562599999999,1
Nordkapp,71.083504519520673,25.966084977638570,1
Meløy,66.926792127911568,13.322194046148963,1
